[{"name":"CEA","start_date":"2025-10-22","end_date":"2025-10-23","latitude":"","longitude":"","description":"","url":null,"image_url":null,"state":"WA","city":"Kennewick"},{"name":"NADD","start_date":"2025-10-15","end_date":"2025-10-17","latitude":"44.97783542677203","longitude":"-93.273558331532","description":"","url":"https://thenadd.org/conferences/","image_url":"https://thenadd.org/wp-content/uploads/2019/03/Asset-4.png","state":"MN","city":"Minneapolis"},{"name":"vaACCSES","start_date":"2025-12-10","end_date":"2025-12-12","latitude":"36.84665182882429","longitude":"-76.29189757605086","description":"","url":"https://vaaccses.org/2025-collaborations-conference/","image_url":"https://versability.org/wp-content/uploads/2024/03/vaACCSES-Logo.webp","state":"VA","city":"Norfolk"},{"name":"DDPA Texarkana","start_date":"2025-11-03","end_date":"2025-11-04","latitude":"33.45735641825361","longitude":"-94.07503766638146","description":"","url":"https://ddpaarkansas.org/conference/fall-conference-2025/","image_url":"https://ddpaarkansas.org/wp-content/uploads/2024/09/Vertical_1-1024x897.png","state":"TX","city":"Texarkana"},{"name":"NASDDS","start_date":"2025-11-03","end_date":"2025-11-06","latitude":"33.45392163766642","longitude":"-112.0726581364896","description":"","url":"https://www.nasddds.org/recent-conferences-and-member-education/","image_url":"https://media.licdn.com/dms/image/v2/C4E0BAQEhmtjwpoRY3w/company-logo_200_200/company-logo_200_200/0/1679447835313/nasddds_logo?e=2147483647&v=beta&t=OrgBO-tal29CQBooKzv-u7AibfrDXmpqD0XuUr3FKjs","state":"AZ","city":"Phoenix"},{"name":"Starling","start_date":"2025-11-18","end_date":"2025-11-19","latitude":"36.64338248223662","longitude":"-93.21505984537364","description":"","url":"https://www.starlingmissouri.org/conference2025","image_url":"https://pbs.twimg.com/profile_images/1720074360025923584/0cQonu9r_400x400.jpg","state":"MO","city":""},{"name":"NADSA","start_date":"2025-10-22","end_date":"2025-10-24","latitude":"41.880490296326826","longitude":"-87.62664224331208","description":"","url":"https://www.nadsa.org/education-events/2025-conference-information/","image_url":"https://www.nadsa.org/education-events/2025-conference-information/","state":"IL","city":"Chicago"},{"name":"Six State Summit","start_date":"2025-10-22","end_date":"2025-10-23","latitude":"44.07972262462891","longitude":"-103.22647188739424","description":"","url":"https://www.cspofsd.com/6-state-summit-general-information","image_url":"https://encrypted-tbn0.gstatic.com/images?q=tbn:ANd9GcSAx_2iIVTwt2_jnGP6VvkS4CmOi5ssUW3ZHg&s","state":"SD","city":"Rapid City"},{"name":"CQL","start_date":"2025-10-13","end_date":"2025-10-16","latitude":"39.94537250692869","longitude":"-75.14120479630124","description":"","url":"https://www.c-q-l.org/resources/events/2025-cql-conference-go-the-distance/","image_url":"https://www.c-q-l.org/wp-content/uploads/2020/03/CQL-Main-Logo.png","state":"PA","city":"Philadelphia"},{"name":"The Arcâ€™s National Convention","start_date":"2025-11-13","end_date":"2025-11-15","latitude":"35.21746874069293","longitude":"-80.83933213068559","description":"Come visit our booth at the National Arc Conference from November 13th to 15th!! Daniel will be in our Boo mascot costume ðŸ‘»","url":"https://convention.thearc.org/","image_url":"https://convention.thearc.org/wp-content/uploads/2020/01/The-Arc.png","state":"NC","city":"Charlotte"}]